{
  "currentCount": 50,
  "data": [
    {
      "address": "서울특별시 중구 을지로 39길 29",
      "centerName": "코로나19 중앙 예방접종센터",
      "centerType": "중앙/권역",
      "createdAt": "2021-03-03 07:00:52",
      "facilityName": "국립중앙의료원 D동",
      "id": 1,
      "lat": "37.567817",
      "lng": "127.004501",
      "org": "국립중앙의료원",
      "phoneNumber": "02-2260-7114",
      "sido": "서울특별시",
      "sigungu": "중구",
      "updatedAt": "2021-07-16 04:55:08",
      "zipCode": "04562"
    },
    {
      "address": "충청남도 천안시 동남구 천안대로 357",
      "centerName": "코로나19 중부권역 예방접종센터",
      "centerType": "중앙/권역",
      "createdAt": "2021-03-03 07:00:52",
      "facilityName": "천안시 실내배드민턴장 1층",
      "id": 2,
      "lat": "36.779887",
      "lng": "127.164717",
      "org": "순천향대 천안병원",
      "phoneNumber": "",
      "sido": "충청남도",
      "sigungu": "천안시 동남구",
      "updatedAt": "2021-07-16 04:55:08",
      "zipCode": "31212"
    },
    {
      "address": "광주광역시 동구 필문대로 365",
      "centerName": "코로나19 호남권역 예방접종센터",
      "centerType": "중앙/권역",
      "createdAt": "2021-03-03 07:00:52",
      "facilityName": "조선대학교병원 의성관 5층",
      "id": 3,
      "lat": "35.139465",
      "lng": "126.925563",
      "org": "조선대병원",
      "phoneNumber": "062-220-3739",
      "sido": "광주광역시",
      "sigungu": "동구",
      "updatedAt": "2021-07-16 04:55:08",
      "zipCode": "61452"
    },
    {
      "address": "경상남도 양산시 물금읍 금오로 20",
      "centerName": "코로나19 영남권역 예방접종센터",
      "centerType": "중앙/권역",
      "createdAt": "2021-03-03 07:00:53",
      "facilityName": "양산 부산대병원 기숙사동 1층",
      "id": 4,
      "lat": "35.3239",
      "lng": "129.009337",
      "org": "양산 부산대병원",
      "phoneNumber": "055-360-6701",
      "sido": "경상남도",
      "sigungu": "양산시",
      "updatedAt": "2021-07-16 04:55:08",
      "zipCode": "50612"
    },
    {
      "address": "대구시 중구 달성로 56",
      "centerName": "코로나19 대구광역시 중구 예방접종센터",
      "centerType": "지역",
      "createdAt": "2021-03-03 07:00:53",
      "facilityName": "계명대학교 대구동산병원 별관",
      "id": 5,
      "lat": "35.869985",
      "lng": "128.583716",
      "org": "",
      "phoneNumber": "053-661-3955",
      "sido": "대구광역시",
      "sigungu": "중구",
      "updatedAt": "2021-07-16 04:55:09",
      "zipCode": "41931"
    },
    {
      "address": "서울특별시 성동구 고산자로 270",
      "centerName": "코로나19 서울특별시 성동구 예방접종센터",
      "centerType": "지역",
      "createdAt": "2021-03-15 00:03:43",
      "facilityName": "성동구청 대강당(3층)",
      "id": 6,
      "lat": "37.563457",
      "lng": "127.036981",
      "org": "",
      "phoneNumber": "02-2286-5084",
      "sido": "서울특별시",
      "sigungu": "성동구",
      "updatedAt": "2021-07-16 04:55:09",
      "zipCode": "04750"
    },
    {
      "address": "부산 부산진구 시민공원로 73",
      "centerName": "코로나19 부산광역시 부산진구 예방접종센터",
      "centerType": "지역",
      "createdAt": "2021-03-15 00:03:43",
      "facilityName": "부산시민공원 시민사랑채",
      "id": 7,
      "lat": "35.170182",
      "lng": "129.059301",
      "org": "",
      "phoneNumber": "051-605-8633",
      "sido": "부산광역시",
      "sigungu": "부산진구",
      "updatedAt": "2021-07-16 04:55:09",
      "zipCode": "47197"
    },
    {
      "address": "인천광역시 연수구 경원대로 526",
      "centerName": "코로나19 인천광역시 연수구 예방접종센터",
      "centerType": "지역",
      "createdAt": "2021-03-15 00:03:43",
      "facilityName": "선학경기장 선학체육관",
      "id": 8,
      "lat": "37.429571",
      "lng": "126.703271",
      "org": "",
      "phoneNumber": "032-749-8121",
      "sido": "인천광역시",
      "sigungu": "연수구",
      "updatedAt": "2021-07-16 04:55:10",
      "zipCode": "21908"
    },
    {
      "address": "광주광역시 서구 금화로 278",
      "centerName": "코로나19 광주광역시 서구 예방접종센터",
      "centerType": "지역",
      "createdAt": "2021-03-15 00:03:43",
      "facilityName": "빛고을체육관",
      "id": 9,
      "lat": "35.135361",
      "lng": "126.8771731",
      "org": "",
      "phoneNumber": "062-371-8731",
      "sido": "광주광역시",
      "sigungu": "서구",
      "updatedAt": "2021-07-16 04:55:10",
      "zipCode": "62048"
    },
    {
      "address": "대전광역시 유성구 유성대로 978",
      "centerName": "코로나19 대전광역시 유성구 예방접종센터",
      "centerType": "지역",
      "createdAt": "2021-03-15 00:03:44",
      "facilityName": "유성종합스포츠센터",
      "id": 10,
      "lat": "36.378512",
      "lng": "127.344399",
      "org": "",
      "phoneNumber": "042-611-2498",
      "sido": "대전광역시",
      "sigungu": "유성구",
      "updatedAt": "2021-07-16 04:55:11",
      "zipCode": "34128"
    },
    {
      "address": "울산시 중구 염포로 85",
      "centerName": "코로나19 울산광역시 중구 예방접종센터",
      "centerType": "지역",
      "createdAt": "2021-03-15 00:03:44",
      "facilityName": "동천체육관",
      "id": 11,
      "lat": "35.562451",
      "lng": "129.350436",
      "org": "",
      "phoneNumber": "052-290-4941",
      "sido": "울산광역시",
      "sigungu": "중구",
      "updatedAt": "2021-07-16 04:55:11",
      "zipCode": "44497"
    },
    {
      "address": "세종특별자치시 달빛1로 227",
      "centerName": "코로나19 세종특별자치시 예방접종센터",
      "centerType": "지역",
      "createdAt": "2021-03-15 00:07:52",
      "facilityName": "남세종종합청소년센터",
      "id": 12,
      "lat": "36.519427",
      "lng": "127.245248",
      "org": "",
      "phoneNumber": "044-301-2868",
      "sido": "세종특별자치시",
      "sigungu": "",
      "updatedAt": "2021-07-16 04:55:11",
      "zipCode": "30099"
    },
    {
      "address": "경기도 수원시 영통구 월드컵로 206",
      "centerName": "코로나19 경기도 수원시 예방접종센터",
      "centerType": "지역",
      "createdAt": "2021-03-15 00:07:52",
      "facilityName": "아주대 실내체육관",
      "id": 13,
      "lat": "37.279932",
      "lng": "127.045439",
      "org": "",
      "phoneNumber": "031-228-3737",
      "sido": "경기도",
      "sigungu": "수원시 영통구",
      "updatedAt": "2021-07-16 04:55:11",
      "zipCode": "16499"
    },
    {
      "address": "경기도 고양시 일산동구 호수로 595",
      "centerName": "코로나19 경기도 고양시 일산동구 예방접종센터",
      "centerType": "지역",
      "createdAt": "2021-03-15 00:07:53",
      "facilityName": "고양꽃전시관",
      "id": 14,
      "lat": "37.653775",
      "lng": "126.768889",
      "org": "",
      "phoneNumber": "031-8075-4830",
      "sido": "경기도",
      "sigungu": "고양시 일산동구",
      "updatedAt": "2021-07-16 04:55:11",
      "zipCode": "10400"
    },
    {
      "address": "강원도 원주시 서원대로 279",
      "centerName": "코로나19 강원도 원주시 예방접종센터",
      "centerType": "지역",
      "createdAt": "2021-03-15 00:07:53",
      "facilityName": "치악체육관",
      "id": 15,
      "lat": "37.338561",
      "lng": "127.940763",
      "org": "",
      "phoneNumber": "033-737-4012",
      "sido": "강원도",
      "sigungu": "원주시",
      "updatedAt": "2021-07-16 04:55:11",
      "zipCode": "26447"
    },
    {
      "address": "충청북도 청주시 상당구 남일면 단재로 466",
      "centerName": "코로나19 충청북도 청주시 예방접종센터",
      "centerType": "지역",
      "createdAt": "2021-03-15 00:07:53",
      "facilityName": "상당구청 스포츠센터",
      "id": 16,
      "lat": "36.589755",
      "lng": "127.505123",
      "org": "",
      "phoneNumber": "043-201-4394",
      "sido": "충청북도",
      "sigungu": "청주시 상당구",
      "updatedAt": "2021-07-16 04:55:11",
      "zipCode": "28806"
    },
    {
      "address": "충남 천안시 서북구 번영로 208",
      "centerName": "코로나19 충청남도 천안시 서북구 예방접종센터",
      "centerType": "지역",
      "createdAt": "2021-03-15 00:07:53",
      "facilityName": "천안시 실내테니스장",
      "id": 17,
      "lat": "36.817161",
      "lng": "127.112761",
      "org": "",
      "phoneNumber": "041-521-3013",
      "sido": "충청남도",
      "sigungu": "천안시 서북구",
      "updatedAt": "2021-07-16 04:55:12",
      "zipCode": "31157"
    },
    {
      "address": "전주시 완산구 백제대로 310",
      "centerName": "코로나19 전라북도 전주시 예방접종센터",
      "centerType": "지역",
      "createdAt": "2021-03-15 00:07:53",
      "facilityName": "화산체육관",
      "id": 18,
      "lat": "35.821042",
      "lng": "127.124525",
      "org": "",
      "phoneNumber": "063-281-6621",
      "sido": "전라북도",
      "sigungu": "전주시 완산구",
      "updatedAt": "2021-07-16 04:55:12",
      "zipCode": "54984"
    },
    {
      "address": "전남 목포시 대양로 286",
      "centerName": "코로나19 전라남도 목포시 예방접종센터",
      "centerType": "지역",
      "createdAt": "2021-03-15 00:07:53",
      "facilityName": "목포실내체육관",
      "id": 19,
      "lat": "34.825289",
      "lng": "126.406585",
      "org": "",
      "phoneNumber": "063-270-8939",
      "sido": "전라남도",
      "sigungu": "목포시",
      "updatedAt": "2021-07-16 04:55:12",
      "zipCode": "58608"
    },
    {
      "address": "경북 포항시 남구 희망대로 810",
      "centerName": "코로나19 경상북도 포항시 남구 예방접종센터",
      "centerType": "지역",
      "createdAt": "2021-03-15 00:07:53",
      "facilityName": "포항종합운동장 실내체육관",
      "id": 20,
      "lat": "36.008538",
      "lng": "129.360825",
      "org": "",
      "phoneNumber": "054-270-4959",
      "sido": "경상북도",
      "sigungu": "포항시 남구",
      "updatedAt": "2021-07-16 04:55:12",
      "zipCode": "37832"
    },
    {
      "address": "경남 창원시 마산회원구 삼호로 63",
      "centerName": "코로나19 경상남도 창원시 마산구 예방접종센터",
      "centerType": "지역",
      "createdAt": "2021-03-15 00:07:53",
      "facilityName": "마산체육관",
      "id": 21,
      "lat": "35.222011",
      "lng": "128.579527",
      "org": "",
      "phoneNumber": "055-225-7671",
      "sido": "경상남도",
      "sigungu": "창원시 마산회원구",
      "updatedAt": "2021-07-16 04:55:12",
      "zipCode": "51323"
    },
    {
      "address": "제주시 서광로2길 24",
      "centerName": "코로나19 제주특별자치도 제주시 예방접종센터",
      "centerType": "지역",
      "createdAt": "2021-03-15 00:07:53",
      "facilityName": "한라체육관",
      "id": 22,
      "lat": "33.497436",
      "lng": "126.515526",
      "org": "",
      "phoneNumber": "064-728-4028",
      "sido": "제주특별자치도",
      "sigungu": "제주시",
      "updatedAt": "2021-07-16 04:55:12",
      "zipCode": "63189"
    },
    {
      "address": "서울특별시 중랑구 사가정로72길47",
      "centerName": "코로나19 서울특별시 중랑구 예방접종센터",
      "centerType": "지역",
      "createdAt": "2021-03-30 08:50:56",
      "facilityName": "중랑문화체육관",
      "id": 23,
      "lat": "37.5793205",
      "lng": "127.0957285",
      "org": "",
      "phoneNumber": "02-2094-0275",
      "sido": "서울특별시",
      "sigungu": "중랑구",
      "updatedAt": "2021-07-16 04:55:12",
      "zipCode": "02261"
    },
    {
      "address": "서울특별시 성북구 보문로 168",
      "centerName": "코로나19 서울특별시 성북구 예방접종센터",
      "centerType": "지역",
      "createdAt": "2021-03-30 08:50:56",
      "facilityName": "성북아트홀(구청4층)",
      "id": 24,
      "lat": "37.5894",
      "lng": "127.016749",
      "org": "",
      "phoneNumber": "02-2241-4305",
      "sido": "서울특별시",
      "sigungu": "성북구",
      "updatedAt": "2021-07-16 04:55:13",
      "zipCode": "02848"
    },
    {
      "address": "서울특별시 노원구 노원로22길 1",
      "centerName": "코로나19 서울특별시 노원구 예방접종센터",
      "centerType": "지역",
      "createdAt": "2021-03-30 08:50:56",
      "facilityName": "노원구민체육센터",
      "id": 25,
      "lat": "37.6481759",
      "lng": "127.0707093",
      "org": "",
      "phoneNumber": "02-2116-3084",
      "sido": "서울특별시",
      "sigungu": "노원구",
      "updatedAt": "2021-07-16 04:55:13",
      "zipCode": "01741"
    },
    {
      "address": "서울특별시 은평구 녹번로 16",
      "centerName": "코로나19 서울특별시 은평구 예방접종센터",
      "centerType": "지역",
      "createdAt": "2021-03-30 08:50:57",
      "facilityName": "은평문화 예술회관",
      "id": 26,
      "lat": "37.6037201",
      "lng": "126.9279226",
      "org": "",
      "phoneNumber": "02-351-6187",
      "sido": "서울특별시",
      "sigungu": "은평구",
      "updatedAt": "2021-07-16 04:55:13",
      "zipCode": "03381"
    },
    {
      "address": "서울특별시 동작구 사당로27길 232",
      "centerName": "코로나19 서울특별시 동작구 예방접종센터",
      "centerType": "지역",
      "createdAt": "2021-03-30 08:50:57",
      "facilityName": "사당종합체육관",
      "id": 27,
      "lat": "37.4928063",
      "lng": "126.9697426",
      "org": "",
      "phoneNumber": "02-820-1965",
      "sido": "서울특별시",
      "sigungu": "동작구",
      "updatedAt": "2021-07-16 04:55:13",
      "zipCode": "06989"
    },
    {
      "address": "서울특별시 송파구 양산로15",
      "centerName": "코로나19 서울특별시 송파구 예방접종센터",
      "centerType": "지역",
      "createdAt": "2021-03-30 08:50:57",
      "facilityName": "송파구 체육문화회관",
      "id": 28,
      "lat": "37.4907262",
      "lng": "127.1428442",
      "org": "",
      "phoneNumber": "02-2147-2131",
      "sido": "서울특별시",
      "sigungu": "송파구",
      "updatedAt": "2021-07-16 04:55:13",
      "zipCode": "05771"
    },
    {
      "address": "부산광역시 남구 백운포로 110",
      "centerName": "코로나19 부산광역시 남구 예방접종센터",
      "centerType": "지역",
      "createdAt": "2021-03-30 08:50:57",
      "facilityName": "남구국민체육센터",
      "id": 29,
      "lat": "35.1038048",
      "lng": "129.1080682",
      "org": "",
      "phoneNumber": "051-607-3725",
      "sido": "부산광역시",
      "sigungu": "남구",
      "updatedAt": "2021-07-16 04:55:13",
      "zipCode": "48563"
    },
    {
      "address": "인천광역시 서구 봉수대로 806",
      "centerName": "코로나19 인천광역시 서구 예방접종센터",
      "centerType": "지역",
      "createdAt": "2021-03-30 08:50:57",
      "facilityName": "인천아시아드주경기장",
      "id": 30,
      "lat": "37.5476153",
      "lng": "126.6666173",
      "org": "",
      "phoneNumber": "032-560-5053",
      "sido": "인천광역시",
      "sigungu": "서구",
      "updatedAt": "2021-07-16 04:55:13",
      "zipCode": "22717"
    },
    {
      "address": "광주광역시 남구 화산로 110",
      "centerName": "코로나19 광주광역시 남구 예방접종센터",
      "centerType": "지역",
      "createdAt": "2021-03-30 08:50:57",
      "facilityName": "남구다목적체육관",
      "id": 31,
      "lat": "35.1141618",
      "lng": "126.9087287",
      "org": "",
      "phoneNumber": "062-607-4336",
      "sido": "광주광역시",
      "sigungu": "남구",
      "updatedAt": "2021-07-16 04:55:14",
      "zipCode": "61711"
    },
    {
      "address": "울산광역시 남구 여천로 38",
      "centerName": "코로나19 울산광역시 남구 예방접종센터",
      "centerType": "지역",
      "createdAt": "2021-03-30 08:50:57",
      "facilityName": "남구국민체육센터",
      "id": 32,
      "lat": "35.5228599",
      "lng": "129.3379882",
      "org": "",
      "phoneNumber": "052-226-2399",
      "sido": "울산광역시",
      "sigungu": "남구",
      "updatedAt": "2021-07-16 04:55:14",
      "zipCode": "44766"
    },
    {
      "address": "경기도 성남시 분당구 탄천로 215",
      "centerName": "코로나19 경기도 성남시 분당구 예방접종센터",
      "centerType": "지역",
      "createdAt": "2021-03-30 08:50:57",
      "facilityName": "탄천종합운동장 체육회관 이벤트홀",
      "id": 33,
      "lat": "37.4094673",
      "lng": "127.1197616",
      "org": "",
      "phoneNumber": "031-729-8582",
      "sido": "경기도",
      "sigungu": "성남시 분당구",
      "updatedAt": "2021-07-16 04:55:14",
      "zipCode": "13495"
    },
    {
      "address": "경기도 안양시 동안구 평촌대로 389",
      "centerName": "코로나19 경기도 안양시 동안구 예방접종센터",
      "centerType": "지역",
      "createdAt": "2021-03-30 08:50:57",
      "facilityName": "실내빙상장 앞",
      "id": 34,
      "lat": "37.404476",
      "lng": "126.9491998",
      "org": "",
      "phoneNumber": "031-8045-4843",
      "sido": "경기도",
      "sigungu": "안양시 동안구",
      "updatedAt": "2021-07-16 04:55:14",
      "zipCode": "13918"
    },
    {
      "address": "경기도 남양주시 다산 지금로 91",
      "centerName": "코로나19 경기도 남양주시 예방접종센터",
      "centerType": "지역",
      "createdAt": "2021-03-30 08:50:57",
      "facilityName": "남양주 체육문화센터",
      "id": 35,
      "lat": "37.6053844",
      "lng": "127.1767155",
      "org": "",
      "phoneNumber": "031-590-2598",
      "sido": "경기도",
      "sigungu": "남양주시",
      "updatedAt": "2021-07-16 04:55:14",
      "zipCode": "12244"
    },
    {
      "address": "강원도 강릉시 종합운동장길 72-25",
      "centerName": "코로나19 강원도 강릉시 예방접종센터",
      "centerType": "지역",
      "createdAt": "2021-03-30 08:50:57",
      "facilityName": "강릉실내롤러스케이트장",
      "id": 36,
      "lat": "37.7725668",
      "lng": "128.8929531",
      "org": "",
      "phoneNumber": "033-660-2401",
      "sido": "강원도",
      "sigungu": "강릉시",
      "updatedAt": "2021-07-16 04:55:15",
      "zipCode": "25474"
    },
    {
      "address": "강원도 춘천시 평화로 25",
      "centerName": "코로나19 강원도 춘천시 예방접종센터",
      "centerType": "지역",
      "createdAt": "2021-03-30 08:50:57",
      "facilityName": "봄내체육관",
      "id": 37,
      "lat": "37.8813604",
      "lng": "127.7185339",
      "org": "",
      "phoneNumber": "033-245-5970",
      "sido": "강원도",
      "sigungu": "춘천시",
      "updatedAt": "2021-07-16 04:55:15",
      "zipCode": "24243"
    },
    {
      "address": "강원도 삼척시 교동 243-13",
      "centerName": "코로나19 강원도 삼척시 예방접종센터",
      "centerType": "지역",
      "createdAt": "2021-03-30 08:50:57",
      "facilityName": "삼척체육관",
      "id": 38,
      "lat": "37.4564581",
      "lng": "129.1720754",
      "org": "",
      "phoneNumber": "033-570-4669",
      "sido": "강원도",
      "sigungu": "삼척시",
      "updatedAt": "2021-07-16 04:55:15",
      "zipCode": "25909"
    },
    {
      "address": "충청북도 충주시 예성로 266",
      "centerName": "코로나19 충청북도 충주시 예방접종센터",
      "centerType": "지역",
      "createdAt": "2021-03-30 08:50:57",
      "facilityName": "충주체육관",
      "id": 39,
      "lat": "36.9816923",
      "lng": "127.9365796",
      "org": "",
      "phoneNumber": "043-850-0002",
      "sido": "충청북도",
      "sigungu": "충주시",
      "updatedAt": "2021-07-16 04:55:15",
      "zipCode": "27371"
    },
    {
      "address": "충청북도 음성군 설성로 47",
      "centerName": "코로나19 충청북도 음성군 예방접종센터",
      "centerType": "지역",
      "createdAt": "2021-03-30 08:50:58",
      "facilityName": "음성실내체육관",
      "id": 40,
      "lat": "36.9307354",
      "lng": "127.6843934",
      "org": "",
      "phoneNumber": "043-871-4392",
      "sido": "충청북도",
      "sigungu": "음성군",
      "updatedAt": "2021-07-16 04:55:15",
      "zipCode": "27704"
    },
    {
      "address": "충청남도 아산시 남부로 370-24",
      "centerName": "코로나19 충청남도 아산시 예방접종센터",
      "centerType": "지역",
      "createdAt": "2021-03-30 08:50:58",
      "facilityName": "이순신종합운동장 복합스포츠센터",
      "id": 41,
      "lat": "36.7702519",
      "lng": "127.0220209",
      "org": "",
      "phoneNumber": "041-537-3413",
      "sido": "충청남도",
      "sigungu": "아산시",
      "updatedAt": "2021-07-16 04:55:15",
      "zipCode": "31528"
    },
    {
      "address": "충청남도 논산시 체육로 110",
      "centerName": "코로나19 충청남도 논산시 예방접종센터",
      "centerType": "지역",
      "createdAt": "2021-03-30 08:50:58",
      "facilityName": "시민운동장",
      "id": 42,
      "lat": "36.1952048",
      "lng": "127.104313",
      "org": "",
      "phoneNumber": "041-746-8032",
      "sido": "충청남도",
      "sigungu": "논산시",
      "updatedAt": "2021-07-16 04:55:15",
      "zipCode": "32993"
    },
    {
      "address": "전라북도 군산시 번영로 281",
      "centerName": "코로나19 전라북도 군산시 예방접종센터",
      "centerType": "지역",
      "createdAt": "2021-03-30 08:50:58",
      "facilityName": "월명종합경기장 월명체육관",
      "id": 43,
      "lat": "35.9627736",
      "lng": "126.7460261",
      "org": "",
      "phoneNumber": "063-460-0024",
      "sido": "전라북도",
      "sigungu": "군산시",
      "updatedAt": "2021-07-16 04:55:16",
      "zipCode": "54078"
    },
    {
      "address": "전라북도 정읍시 서부로 9",
      "centerName": "코로나19 전라북도 정읍시 예방접종센터",
      "centerType": "지역",
      "createdAt": "2021-03-30 08:50:58",
      "facilityName": "정읍실내체육관",
      "id": 44,
      "lat": "35.5695705",
      "lng": "126.8442138",
      "org": "",
      "phoneNumber": "063-539-6103",
      "sido": "전라북도",
      "sigungu": "정읍시",
      "updatedAt": "2021-07-16 04:55:16",
      "zipCode": "56158"
    },
    {
      "address": "전라북도 남원시 충정로 341",
      "centerName": "코로나19 전라북도 남원시 예방접종센터",
      "centerType": "지역",
      "createdAt": "2021-03-30 08:50:58",
      "facilityName": "춘향골 체육관",
      "id": 45,
      "lat": "35.4305186",
      "lng": "127.4021114",
      "org": "",
      "phoneNumber": "063-620-7939",
      "sido": "전라북도",
      "sigungu": "남원시",
      "updatedAt": "2021-07-16 04:55:16",
      "zipCode": "55766"
    },
    {
      "address": "전라남도 여수시 선소로 93",
      "centerName": "코로나19 전라남도 여수시 예방접종센터",
      "centerType": "지역",
      "createdAt": "2021-03-30 08:50:58",
      "facilityName": "흥국체육관",
      "id": 46,
      "lat": "34.7610227",
      "lng": "127.6679095",
      "org": "",
      "phoneNumber": "061-659-4269",
      "sido": "전라남도",
      "sigungu": "여수시",
      "updatedAt": "2021-07-16 04:55:17",
      "zipCode": "59676"
    },
    {
      "address": "전라남도 순천시 중앙로 235",
      "centerName": "코로나19 전라남도 순천시 예방접종센터",
      "centerType": "지역",
      "createdAt": "2021-03-30 08:50:58",
      "facilityName": "순천대학교 국제문화컨벤션관",
      "id": 47,
      "lat": "34.9668203",
      "lng": "127.4840561",
      "org": "",
      "phoneNumber": "061-749-3588",
      "sido": "전라남도",
      "sigungu": "순천시",
      "updatedAt": "2021-07-16 04:55:17",
      "zipCode": "57922"
    },
    {
      "address": "경상남도 진주시 남강로 1655",
      "centerName": "코로나19 경상남도 진주시 예방접종센터",
      "centerType": "지역",
      "createdAt": "2021-03-30 08:50:58",
      "facilityName": "진주종합실내체육관(초전동)",
      "id": 48,
      "lat": "35.2079236",
      "lng": "128.1252806",
      "org": "",
      "phoneNumber": "055-749-6616",
      "sido": "경상남도",
      "sigungu": "진주시",
      "updatedAt": "2021-07-16 04:55:17",
      "zipCode": "52733"
    },
    {
      "address": "경상남도 통영시 북문2길 34",
      "centerName": "코로나19 경상남도 통영시 예방접종센터",
      "centerType": "지역",
      "createdAt": "2021-03-30 08:50:58",
      "facilityName": "충무체육관",
      "id": 49,
      "lat": "34.8510954",
      "lng": "128.4289365",
      "org": "",
      "phoneNumber": "055-650-6053",
      "sido": "경상남도",
      "sigungu": "통영시",
      "updatedAt": "2021-07-16 04:55:17",
      "zipCode": "53047"
    },
    {
      "address": "서울특별시 중구퇴계로 387",
      "centerName": "코로나19 서울특별시 중구 예방접종센터 ",
      "centerType": "지역",
      "createdAt": "2021-04-07 08:43:42",
      "facilityName": "충무스포츠센터",
      "id": 50,
      "lat": "37.566055",
      "lng": "127.014916",
      "org": "",
      "phoneNumber": "02-3396-4503",
      "sido": "서울특별시",
      "sigungu": "중구",
      "updatedAt": "2021-07-16 04:55:18",
      "zipCode": "04569"
    }
  ],
  "matchCount": 284,
  "page": 1,
  "perPage": 50,
  "totalCount": 284
}